[{
  "name": "Mouans Sartoux",
  "country": "FRA",
  "countryName": "France",
  "icon": "star",
  "coordinates": [6.94215518, 43.60545948]
}, {
  "name": "Tōkyō",
  "country": "JPN",
  "countryName": "Japon",
  "icon": "star",
  "coordinates": [139.66436866, 35.66613639]
}, {
  "name": "Kyōto",
  "country": "JPN",
  "countryName": "Japon",
  "icon": "lodging",
  "coordinates": [135.72559830, 34.99967018]
}, {
  "name": "Sendai",
  "country": "JPN",
  "countryName": "Japon",
  "icon": "lodging",
  "coordinates": [140.84287636, 38.24840567]
}, {
  "name": "Okayama",
  "country": "JPN",
  "countryName": "Japon",
  "icon": "rail",
  "coordinates": [133.89573830, 34.64205749]
}, {
  "name": "Himeji",
  "country": "JPN",
  "countryName": "Japon",
  "icon": "rail",
  "coordinates": [134.64617042, 34.79471659]
}, {
  "name": "Hiroshima",
  "country": "JPN",
  "countryName": "Japon",
  "icon": "rail",
  "coordinates": [132.42970983, 34.37411194]
}, {
  "name": "Naha",
  "country": "JPN",
  "countryName": "Japon",
  "icon": "lodging",
  "coordinates": [127.63860113, 26.19060122]
}, {
  "name": "Ishigaki",
  "country": "JPN",
  "countryName": "Japon",
  "icon": "lodging",
  "coordinates": [124.12420861, 24.31477944]
}, {
  "name": "Paris",
  "country": "FRA",
  "countryName": "France",
  "icon": "lodging",
  "coordinates": [2.35552571, 48.83950449]
}, {
  "name": "Strasbourg",
  "country": "FRA",
  "countryName": "France",
  "icon": "lodging",
  "coordinates": [7.78991905, 48.55591517]
}, {
  "name": "Helsinki",
  "country": "FIN",
  "countryName": "Finlande",
  "icon": "lodging",
  "coordinates": [24.90468988, 60.18202480]
}, {
  "name": "Turku",
  "country": "FIN",
  "countryName": "Finlande",
  "icon": "lodging",
  "coordinates": [22.29525406, 60.43924210]
}, {
  "name": "Naantali",
  "country": "FIN",
  "countryName": "Finlande",
  "icon": "bus",
  "coordinates": [22.03482851, 60.45297239]
}, {
  "name": "Tampere",
  "country": "FIN",
  "countryName": "Finlande",
  "icon": "rail",
  "coordinates": [23.78889072, 61.48530193]
}, {
  "name": "Porvoo",
  "country": "FIN",
  "countryName": "Finlande",
  "icon": "bus",
  "coordinates": [25.62617735, 60.38021693]
}, {
  "name": "New York",
  "country": "USA",
  "countryName": "États-Unis",
  "icon": "lodging",
  "coordinates": [-74.03416885, 40.69124247]
}, {
  "name": "Honolulu",
  "country": "USA",
  "countryName": "États-Unis",
  "icon": "lodging",
  "coordinates": [-157.88996258, 21.28024027]
}, {
  "name": "Gênes",
  "country": "ITA",
  "countryName": "Italie",
  "icon": "car",
  "coordinates": [8.92904628, 44.38602972]
}, {
  "name": "Oslo",
  "country": "NOR",
  "countryName": "Norvège",
  "icon": "lodging",
  "coordinates": [10.76301648, 59.90022979]
}, {
  "name": "Bergen",
  "country": "NOR",
  "countryName": "Norvège",
  "icon": "lodging",
  "coordinates": [5.36355287, 60.40207804]
}, {
  "name": "Flåm",
  "country": "NOR",
  "countryName": "Norvège",
  "icon": "lodging",
  "coordinates": [7.15354086, 60.87255855]
}, {
  "name": "Solvorn",
  "country": "NOR",
  "countryName": "Norvège",
  "icon": "lodging",
  "coordinates": [7.27342382, 61.31474847]
}, {
  "name": "Riga",
  "country": "LVA",
  "countryName": "Lettonie",
  "icon": "lodging",
  "coordinates": [24.06334337, 56.93635595]
}, {
  "name": "Tallinn",
  "country": "EST",
  "countryName": "Estonie",
  "icon": "lodging",
  "coordinates": [24.71868385, 59.42277703]
}, {
  "name": "Vienne",
  "country": "AUT",
  "countryName": "Autriche",
  "icon": "lodging",
  "coordinates": [16.34209869, 48.18913119]
}, {
  "name": "Taipei",
  "country": "TWN",
  "countryName": "Taïwan",
  "icon": "lodging",
  "coordinates": [121.52426121, 25.01454304]
}, {
  "name": "Tainan",
  "country": "TWN",
  "countryName": "Taïwan",
  "icon": "lodging",
  "coordinates": [120.22708971, 22.97517442]
}, {
  "name": "Kaohsiung",
  "country": "TWN",
  "countryName": "Taïwan",
  "icon": "rail",
  "coordinates": [120.27032100, 22.60240599]
}, {
  "name": "Londres",
  "country": "GBR",
  "countryName": "Royaume-Uni",
  "icon": "lodging",
  "coordinates": [-0.16968726, 51.49089805]
}, {
  "name": "Cambridge",
  "country": "GBR",
  "countryName": "Royaume-Uni",
  "icon": "rail",
  "coordinates": [0.08074635, 52.21438737]
}, {
  "name": "Bangkok",
  "country": "THA",
  "countryName": "Thaïlande",
  "icon": "lodging",
  "coordinates": [100.46713175, 13.72857399]
}, {
  "name": "Luang Prabang",
  "country": "LAO",
  "countryName": "Laos",
  "icon": "lodging",
  "coordinates": [102.09293010, 19.90002842]
}, {
  "name": "Siem Reap",
  "country": "KHM",
  "countryName": "Cambodge",
  "icon": "lodging",
  "coordinates": [103.82199877, 13.32703828]
}, {
  "name": "Varsovie",
  "country": "POL",
  "countryName": "Pologne",
  "icon": "airport",
  "coordinates": [21.03192617, 52.21380040]
}, {
  "name": "Munich",
  "country": "DEU",
  "countryName": "Allemagne",
  "icon": "airport",
  "coordinates": [11.61712750, 48.11794250]
}, {
  "name": "Francfort",
  "country": "DEU",
  "countryName": "Allemagne",
  "icon": "airport",
  "coordinates": [8.64972494, 50.09474088]
}, {
  "name": "Milan",
  "country": "ITA",
  "countryName": "Italie",
  "icon": "airport",
  "coordinates": [9.15285956, 45.44650728]
}, {
  "name": "Amsterdam",
  "country": "NLD",
  "countryName": "Pays-Bas",
  "icon": "airport",
  "coordinates": [4.86293781, 52.35365686]
}, {
  "name": "Dubaï",
  "country": "ARE",
  "countyName": "Émirats arabes unis",
  "icon": "airport",
  "coordinates": [55.22945465, 25.23094594]
}, {
  "name": "Zurich",
  "country": "CHE",
  "countryName": "Suisse",
  "icon": "airport",
  "coordinates": [8.49950755, 47.36200976]
}, {
  "name": "Stockholm",
  "country": "SWE",
  "countryName": "Suède",
  "icon": "airport",
  "coordinates": [18.02948425, 59.31737220]
}, {
  "name": "Incheon",
  "country": "KOR",
  "countryName": "Corée du Sud",
  "icon": "airport",
  "coordinates": [126.451147, 37.446444]
}, {
  "name": "Copenhagen",
  "country": "DNK",
  "countryName": "Danemark",
  "icon": "airport",
  "coordinates": [12.6524777, 55.6297979]
}]
