[{
  "name": "Mouans Sartoux, France",
  "icon": "star",
  "coordinates": [6.94215518, 43.60545948]
}, {
  "name": "Tōkyō, Japon",
  "icon": "star",
  "coordinates": [139.66436866, 35.66613639]
}, {
  "name": "Kyōto, Japon",
  "icon": "lodging",
  "coordinates": [135.72559830, 34.99967018]
}, {
  "name": "Sendai,Japon",
  "icon": "lodging",
  "coordinates": [140.84287636, 38.24840567]
}, {
  "name": "Okayama, Japon",
  "icon": "rail",
  "coordinates": [133.89573830, 34.64205749]
}, {
  "name": "Himeji, Japon",
  "icon": "rail",
  "coordinates": [134.64617042, 34.79471659]
}, {
  "name": "Hiroshima, Japon",
  "icon": "rail",
  "coordinates": [132.42970983, 34.37411194]
}, {
  "name": "Naha, Japon",
  "icon": "lodging",
  "coordinates": [127.63860113, 26.19060122]
}, {
  "name": "Ishigaki, Japon",
  "icon": "lodging",
  "coordinates": [124.12420861, 24.31477944]
}, {
  "name": "Paris, France",
  "icon": "lodging",
  "coordinates": [2.35552571, 48.83950449]
}, {
  "name": "Strasbourg, France",
  "icon": "lodging",
  "coordinates": [7.78991905, 48.55591517]
}, {
  "name": "Helsinki, Finlande",
  "icon": "lodging",
  "coordinates": [24.90468988, 60.18202480]
}, {
  "name": "Turku, Finlande",
  "icon": "lodging",
  "coordinates": [22.29525406, 60.43924210]
}, {
  "name": "Naantali, Finlande",
  "icon": "bus",
  "coordinates": [22.03482851, 60.45297239]
}, {
  "name": "Tampere, Finlande",
  "icon": "rail",
  "coordinates": [23.78889072, 61.48530193]
}, {
  "name": "Porvoo, Finlande",
  "icon": "bus",
  "coordinates": [25.62617735, 60.38021693]
}, {
  "name": "New York, États-Unis",
  "icon": "lodging",
  "coordinates": [-74.03416885, 40.69124247]
}, {
  "name": "Honolulu, États-Unis",
  "icon": "lodging",
  "coordinates": [-157.88996258, 21.28024027]
}, {
  "name": "Gênes, Italie",
  "icon": "car",
  "coordinates": [8.92904628, 44.38602972]
}, {
  "name": "Oslo, Norvège",
  "icon": "lodging",
  "coordinates": [10.76301648, 59.90022979]
}, {
  "name": "Bergen, Norvège",
  "icon": "lodging",
  "coordinates": [5.36355287, 60.40207804]
}, {
  "name": "Flåm, Norvège",
  "icon": "lodging",
  "coordinates": [7.15354086, 60.87255855]
}, {
  "name": "Solvorn, Norvège",
  "icon": "lodging",
  "coordinates": [7.27342382, 61.31474847]
}, {
  "name": "Riga, Lettonie",
  "icon": "lodging",
  "coordinates": [24.06334337, 56.93635595]
}, {
  "name": "Tallinn, Estonie",
  "icon": "lodging",
  "coordinates": [24.71868385, 59.42277703]
}, {
  "name": "Vienne, Autriche",
  "icon": "lodging",
  "coordinates": [16.34209869, 48.18913119]
}, {
  "name": "Taipei, Taïwan",
  "icon": "lodging",
  "coordinates": [121.52426121, 25.01454304]
}, {
  "name": "Tainan, Taïwan",
  "icon": "lodging",
  "coordinates": [120.22708971, 22.97517442]
}, {
  "name": "Kaohsiung, Taïwan",
  "icon": "rail",
  "coordinates": [120.27032100, 22.60240599]
}, {
  "name": "Londres, Royaume-Uni",
  "icon": "lodging",
  "coordinates": [-0.16968726, 51.49089805]
}, {
  "name": "Cambridge, Royaume-Uni",
  "icon": "rail",
  "coordinates": [0.08074635, 52.21438737]
}, {
  "name": "Bangkok, Thaïlande",
  "icon": "lodging",
  "coordinates": [100.46713175, 13.72857399]
}, {
  "name": "Luang Prabang, Laos",
  "icon": "lodging",
  "coordinates": [102.09293010, 19.90002842]
}, {
  "name": "Siem Reap, Cambodge",
  "icon": "lodging",
  "coordinates": [103.82199877, 13.32703828]
}, {
  "name": "Varsovie, Pologne",
  "icon": "airport",
  "coordinates": [21.03192617, 52.21380040]
}, {
  "name": "Munich, Allemagne",
  "icon": "airport",
  "coordinates": [11.61712750, 48.11794250]
}, {
  "name": "Francfort, Allemagne",
  "icon": "airport",
  "coordinates": [8.64972494, 50.09474088]
}, {
  "name": "Milan, Italie",
  "icon": "airport",
  "coordinates": [9.15285956, 45.44650728]
}, {
  "name": "Amsterdam, Pays-Bas",
  "icon": "airport",
  "coordinates": [4.86293781, 52.35365686]
}, {
  "name": "Dubaï - Émirats arabes unis",
  "icon": "airport",
  "coordinates": [55.22945465, 25.23094594]
}, {
  "name": "Zurich, Suisse",
  "icon": "airport",
  "coordinates": [8.49950755, 47.36200976]
}, {
  "name": "Stockholm, Suède",
  "icon": "airport",
  "coordinates": [18.02948425, 59.31737220]
}]
